[
    // {
    //     "title": "Taylor Swift",
    //     "artist": "Taylor Swift",
    //     "price": 7.00,
    //     "url": "https://www.amazon.com/Taylor-Swift/dp/B0014I4KH6",
    //     "image": "https://images-na.ssl-images-amazon.com/images/I/61McsadO1OL.jpg",
    //     "thumbnail_image": "https://i.imgur.com/K3KJ3w4h.jpg",
    //     "descriptions": "Taylor Swift has been enhanced by the addition of 3 brand new tracks (I'm Only Me When I'm With You, Invisible, A Perfectly Good Heart) and a pop version of the hit single Teardrops On My Guitar"
    // },
    {
        "No": "1",
        "Name": "國立臺灣大學醫學院附設醫院金山分院",
        "District": "金山區",
        "Address": "新北市金山區五湖里玉爐路7號",
        "Tel": "(02)24989898",
        "Description" : "打鼾、睡眠呼吸中止症,兒童耳鼻喉科疾病,急慢性中耳炎、外耳炎,聽覺異常、耳部腫瘤,眩暈、耳鳴,鼻竇炎、鼻中隔彎曲矯正,咽喉、聲帶及扁桃腺疾病",
        "twd97X": "313313.73",
        "twd97Y": "2790229.27",
        "longitude": "121.628353729889",
        "latitude": "25.2194205420245",
        "image": "https://www.ntuh.gov.tw/orth/academic/pic/%E8%87%BA%E5%A4%A7%E9%86%AB%E9%99%A2%E9%87%91%E5%B1%B1%E5%88%86%E9%99%A2.jpg"
    },
    {
        "No": "2",
        "Name": "醫療財團法人徐元智先生醫藥基金會亞東紀念醫院",
        "District": "板橋區",
        "Address": "新北市板橋區南雅南路二段21號及高爾富路300號",
        "Tel": "(02)89667000",
        "Description" : "打鼾、睡眠呼吸中止症,兒童耳鼻喉科疾病,急慢性中耳炎、外耳炎,聽覺異常、耳部腫瘤,眩暈、耳鳴,鼻竇炎、鼻中隔彎曲矯正,咽喉、聲帶及扁桃腺疾病",
        "twd97X": "295657.65",
        "twd97Y": "2765556.15",
        "longitude": "121.452311835865",
        "latitude": "24.9973133798994",
        "image": "http://www.femh.org.tw/images/index/01.jpg"
    },
    {
        "No": "3",
        "Name": "板橋中興醫院",
        "District": "板橋區",
        "Address": "新北市板橋區忠孝路十五號",
        "Tel": "(02)29590707",
        "Description" : "打鼾、睡眠呼吸中止症,兒童耳鼻喉科疾病,急慢性中耳炎、外耳炎,聽覺異常、耳部腫瘤,眩暈、耳鳴,鼻竇炎、鼻中隔彎曲矯正,咽喉、聲帶及扁桃腺疾病",
        "twd97X": "296461.46",
        "twd97Y": "2766076.63",
        "longitude": "121.460292160265",
        "latitude": "25.0019879713615",
        "image": "http://www.nghcare.com/uploads/7/3/0/9/73098345/3292706.jpg?251"
    },
    {
        "No": "4",
        "Name": "板橋國泰醫院",
        "District": "板橋區",
        "Address": "新北市板橋區忠孝路五、七、九、十一號一至三樓。",
        "Tel": "(02)29583333",
        "Description" : "打鼾、睡眠呼吸中止症,兒童耳鼻喉科疾病,急慢性中耳炎、外耳炎,聽覺異常、耳部腫瘤,眩暈、耳鳴,鼻竇炎、鼻中隔彎曲矯正,咽喉、聲帶及扁桃腺疾病",
        "twd97X": "296440.59",
        "twd97Y": "2766073",
        "longitude": "121.460085238408",
        "latitude": "25.001955815693",
        "image": "http://www.souyao.com.tw/uploads/uploads/allimg/140901/1-140Z1152440G9.jpg"
    },
    {
        "No": "5",
        "Name": "板新醫院",
        "District": "板橋區",
        "Address": "新北市板橋區中正路１８９號",
        "Tel": "(02)29590707",
        "Description" : "打鼾、睡眠呼吸中止症,兒童耳鼻喉科疾病,急慢性中耳炎、外耳炎,聽覺異常、耳部腫瘤,眩暈、耳鳴,鼻竇炎、鼻中隔彎曲矯正,咽喉、聲帶及扁桃腺疾病",
        "twd97X": "296066.49",
        "twd97Y": "2767722.3",
        "longitude": "121.456434207795",
        "latitude": "25.0168572115184",
        "image": "https://encrypted-tbn0.gstatic.com/images?q=tbn:ANd9GcSJKCxtY_shVZRoeA13b6hfOgREpfrBMh4AzXp21G731bRQm9I2"
    },
    {
        "No": "6",
        "Name": "中英醫療社團法人板英醫院",
        "District": "板橋區",
        "Address": "新北市板橋區文化路1段267、269、271號1-4樓",
        "Tel": "(02)82513923",
        "Description" : "打鼾、睡眠呼吸中止症,兒童耳鼻喉科疾病,急慢性中耳炎、外耳炎,聽覺異常、耳部腫瘤,眩暈、耳鳴,鼻竇炎、鼻中隔彎曲矯正,咽喉、聲帶及扁桃腺疾病",
        "twd97X": "296893.92",
        "twd97Y": "2767908.89",
        "longitude": "121.4646386547",
        "latitude": "25.0185164154794",
        "image": "http://www.panying.com.tw/mobile/images/logo.png"
    },
    {
        "No": "7",
        "Name": "中英醫療社團法人中英醫院",
        "District": "板橋區",
        "Address": "新北市板橋區文化路一段192之1號1樓、194號1至4樓、196號1至4樓、198號1至4樓、200號1至4樓、202號1至4樓、204號1至4樓",
        "Tel": "(02)22563584",
        "Description" : "打鼾、睡眠呼吸中止症,兒童耳鼻喉科疾病,急慢性中耳炎、外耳炎,聽覺異常、耳部腫瘤,眩暈、耳鳴,鼻竇炎、鼻中隔彎曲矯正,咽喉、聲帶及扁桃腺疾病",
        "twd97X": "297049.47",
        "twd97Y": "2768050.5",
        "longitude": "121.466184654808",
        "latitude": "25.0197900465811",
        "image": "https://images.1111.com.tw/oad/07/36082307_0.jpg"
    },
    {
        "No": "8",
        "Name": "蕭中正醫院",
        "District": "板橋區",
        "Address": "新北市板橋區南雅南路一段15號之1、17號、19號(1、2、3、4樓)",
        "Tel": "(02)29687095",
        "Description" : "打鼾、睡眠呼吸中止症,兒童耳鼻喉科疾病,急慢性中耳炎、外耳炎,聽覺異常、耳部腫瘤,眩暈、耳鳴,鼻竇炎、鼻中隔彎曲矯正,咽喉、聲帶及扁桃腺疾病",
        "twd97X": "296073.94",
        "twd97Y": "2766627.13",
        "longitude": "121.456471444471",
        "latitude": "25.0069697102994",
        "image": "http://lh6.ggpht.com/_Z9dIjY38W8I/S7vmNHSGNgI/AAAAAAAABJY/wlL5Zw7DV1M/s576/12706056340.jpg"
    },
    {
        "No": "9",
        "Name": "國泰醫療財團法人汐止國泰綜合醫院",
        "District": "汐止區",
        "Address": "新北市汐止區建成路59巷2號地下4樓至地上12樓",
        "Tel": "(02)26482121",
        "Description" : "打鼾、睡眠呼吸中止症,兒童耳鼻喉科疾病,急慢性中耳炎、外耳炎,聽覺異常、耳部腫瘤,眩暈、耳鳴,鼻竇炎、鼻中隔彎曲矯正,咽喉、聲帶及扁桃腺疾病",
        "twd97X": "316691.4",
        "twd97Y": "2774012.12",
        "longitude": "121.661084516009",
        "latitude": "25.0728723367608",
        "image": "http://www.amedicalweb.com/Public/Uploads/pic/2016-04-26/571ecac54e7684.jpg"
    },
    {
        "No": "10",
        "Name": "瑞芳礦工醫院",
        "District": "瑞芳區",
        "Address": "新北市瑞芳區一坑路71之2號",
        "Tel": "(02)24974101",
        "Description" : "打鼾、睡眠呼吸中止症,兒童耳鼻喉科疾病,急慢性中耳炎、外耳炎,聽覺異常、耳部腫瘤,眩暈、耳鳴,鼻竇炎、鼻中隔彎曲矯正,咽喉、聲帶及扁桃腺疾病",
        "twd97X": "330949.87",
        "twd97Y": "2778017.67",
        "longitude": "121.802648746309",
        "latitude": "25.1083352647913",
        "image": "http://app.tzuchi.com.tw//TzuChi/Images/Diary_SiteDiary/201309040207541182867_uFile_B.jpg"
    },
    {
        "No": "11",
        "Name": "佛教慈濟醫療財團法人台北慈濟醫院",
        "District": "新店區",
        "Address": "新北市新店區建國路277號地上1、3、4樓及289號地下1至3樓至地上1至15樓",
        "Tel": "(02)66289779",
        "Description" : "打鼾、睡眠呼吸中止症,兒童耳鼻喉科疾病,急慢性中耳炎、外耳炎,聽覺異常、耳部腫瘤,眩暈、耳鳴,鼻竇炎、鼻中隔彎曲矯正,咽喉、聲帶及扁桃腺疾病",
        "twd97X": "304072.38",
        "twd97Y": "2764126.36",
        "longitude": "121.535614538786",
        "latitude": "24.9841285328546",
        "image": "http://www.cchsu.com.tw/images/goods/1309159644709955149.jpg"
    },
    {
        "No": "12",
        "Name": "宏慈療養院",
        "District": "新店區",
        "Address": "新北市新店區安泰路１５７號",
        "Tel": "(02)22151177",
        "Description" : "打鼾、睡眠呼吸中止症,兒童耳鼻喉科疾病,急慢性中耳炎、外耳炎,聽覺異常、耳部腫瘤,眩暈、耳鳴,鼻竇炎、鼻中隔彎曲矯正,咽喉、聲帶及扁桃腺疾病",
        "twd97X": "299288.34",
        "twd97Y": "2759070.13",
        "longitude": "121.488047618263",
        "latitude": "24.9386433008364",
        "image": "https://maps.googleapis.com/maps/api/streetview?size=400x250&location=24.94704,121.495332"
    },
    {
        "No": "13",
        "Name": "新北仁康醫院",
        "District": "新店區",
        "Address": "新北市新店區安康路2段323號地上1至2樓",
        "Tel": "(02)22152345",
        "Description" : "打鼾、睡眠呼吸中止症,兒童耳鼻喉科疾病,急慢性中耳炎、外耳炎,聽覺異常、耳部腫瘤,眩暈、耳鳴,鼻竇炎、鼻中隔彎曲矯正,咽喉、聲帶及扁桃腺疾病",
        "twd97X": "300453.32",
        "twd97Y": "2760946.14",
        "longitude": "121.499651059982",
        "latitude": "24.9555418955882"
    },
    {
        "No": "14",
        "Name": "同仁醫院",
        "District": "新店區",
        "Address": "新北市新店區民權路８９號",
        "Tel": "(02)29170201",
        "twd97X": "304288.1",
        "twd97Y": "2763976.4",
        "longitude": "121.537745358315",
        "latitude": "24.982766933881"
    },
    {
        "No": "15",
        "Name": "怡濟慈園醫療社團法人宏濟神經精神科醫院",
        "District": "新店區",
        "Address": "新北市新店區安忠路57巷5號",
        "Tel": "(02)22118899",
        "twd97X": "301895.82",
        "twd97Y": "2761324.18",
        "longitude": "121.513950185611",
        "latitude": "24.958906299235"
    },
    {
        "No": "16",
        "Name": "天主教耕莘醫療財團法人耕莘醫院",
        "District": "新店區",
        "Address": "新北市新店區中正路362號",
        "Tel": "(02)22193391",
        "twd97X": "304076.34",
        "twd97Y": "2763235.3",
        "longitude": "121.535618974184",
        "latitude": "24.9760838423589"
    },
    {
        "No": "17",
        "Name": "天主教耕莘醫療財團法人永和耕莘醫院",
        "District": "永和區",
        "Address": "新北市永和區中興街80號地下1樓至地上6樓及國光路123號地下3樓至地上11樓",
        "Tel": "(02)29286060",
        "twd97X": "302269.18",
        "twd97Y": "2767192.65",
        "longitude": "121.517869538387",
        "latitude": "25.0118742057765"
    },
    {
        "No": "18",
        "Name": "永和復康醫院",
        "District": "永和區",
        "Address": "新北市永和區中和路575、577、579號1至4樓",
        "Tel": "(02)29240925",
        "twd97X": "301684.9",
        "twd97Y": "2766312.95",
        "longitude": "121.512047917253",
        "latitude": "25.0039523386077"
    },
    {
        "No": "19",
        "Name": "瑞祥婦幼醫院",
        "District": "永和區",
        "Address": "新北市永和區福和路278號2至6樓",
        "Tel": "(02)29235133",
        "twd97X": "302271.9",
        "twd97Y": "2766717.31",
        "longitude": "121.517878487774",
        "latitude": "25.0075827385317"
    },
    {
        "No": "20",
        "Name": "衛生福利部雙和醫院(委託臺北醫學大學興建經營)",
        "District": "中和區",
        "Address": "新北市中和區中正路291號醫療大樓地下2層至地上12層",
        "Tel": "(02)22490088",
        "twd97X": "299875.54",
        "twd97Y": "2765175.7",
        "longitude": "121.494081816509",
        "latitude": "24.9937458024095"
    },
    {
        "No": "21",
        "Name": "祥顥醫院",
        "District": "中和區",
        "Address": "新北市中和區景平路412、412之1號1至5樓",
        "Tel": "(02)29468795",
        "twd97X": "301305.79",
        "twd97Y": "2765132.22",
        "longitude": "121.508248247052",
        "latitude": "24.9933055575991"
    },
    {
        "No": "22",
        "Name": "怡和醫院",
        "District": "中和區",
        "Address": "新北市中和區連城路49號1至4樓",
        "Tel": "(02)22450009",
        "twd97X": "300318.84",
        "twd97Y": "2766078.58",
        "longitude": "121.49850601221",
        "latitude": "25.0018824033028"
    },
    {
        "No": "23",
        "Name": "蕙生醫院",
        "District": "中和區",
        "Address": "新北市中和區中山路二段551號地下一樓至地上一至六樓",
        "Tel": "(02)32346688",
        "twd97X": "298542.69",
        "twd97Y": "2766466.36",
        "longitude": "121.480923908992",
        "latitude": "25.0054412315123"
    },
    {
        "No": "24",
        "Name": "中祥醫院",
        "District": "中和區",
        "Address": "新北市中和區中山路二段138號〈二至四樓〉?140及142號〈一至四樓〉",
        "Tel": "(02)22405055",
        "twd97X": "300677.35",
        "twd97Y": "2766231.3",
        "longitude": "121.502063326502",
        "latitude": "25.003249201199"
    },
    {
        "No": "25",
        "Name": "廣川醫院",
        "District": "土城區",
        "Address": "新北市土城區裕民路２７４．２７６．２７８號",
        "Tel": "(02)22617000",
        "twd97X": "295934.59",
        "twd97Y": "2763882.01",
        "longitude": "121.454999642099",
        "latitude": "24.9821907718896"
    },
    {
        "No": "26",
        "Name": "恩樺醫院",
        "District": "土城區",
        "Address": "新北市土城區中央路一段7-18號地下1樓、1樓、2樓、4至10樓",
        "Tel": "(02)22639955",
        "twd97X": "295292.92",
        "twd97Y": "2764861.34",
        "longitude": "121.448675848263",
        "latitude": "24.9910515485468"
    },
    {
        "No": "27",
        "Name": "仁安醫院",
        "District": "土城區",
        "Address": "新北市土城區中央路1段六二．六四號1-５樓 中華路一段一號2-5樓三號1-5樓",
        "Tel": "(02)22627088",
        "twd97X": "295163.87",
        "twd97Y": "2764690.03",
        "longitude": "121.44739196497",
        "latitude": "24.989508817628"
    },
    {
        "No": "28",
        "Name": "元復醫院",
        "District": "土城區",
        "Address": "新北市土城區中央路2段318．320．322．324號1至4樓",
        "Tel": "(02)22661886",
        "twd97X": "294454.65",
        "twd97Y": "2762839.36",
        "longitude": "121.440307054027",
        "latitude": "24.9728216340517"
    },
    {
        "No": "29",
        "Name": "永聖醫療社團法人文化醫院",
        "District": "三峽區",
        "Address": "新北市三峽區介壽路1段199號",
        "Tel": "(02)26732885",
        "twd97X": "288198.65",
        "twd97Y": "2758160",
        "longitude": "121.378215785805",
        "latitude": "24.9307456196242"
    },
    {
        "No": "30",
        "Name": "清福醫院",
        "District": "三峽區",
        "Address": "新北市三峽區介壽路一段286號2樓",
        "Tel": "(02)26739288",
        "twd97X": "288397.93",
        "twd97Y": "2757970.96",
        "longitude": "121.380183596676",
        "latitude": "24.9290338486482"
    },
    {
        "No": "31",
        "Name": "行天宮醫療志業醫療財團法人恩主公醫院",
        "District": "三峽區",
        "Address": "新北市三峽區復興路399號、中山路198號",
        "Tel": "(02)26723456",
        "twd97X": "286660.45",
        "twd97Y": "2759002.03",
        "longitude": "121.36300809781",
        "latitude": "24.9383854878986"
    },
    {
        "No": "32",
        "Name": "仁愛醫院",
        "District": "樹林區",
        "Address": "新北市樹林區文化街9號(地下1、2樓及地上1樓至8樓)",
        "Tel": "(02)26834567",
        "twd97X": "292403.4",
        "twd97Y": "2764424.17",
        "longitude": "121.42003921001",
        "latitude": "24.9871882391524"
    },
    {
        "No": "33",
        "Name": "名恩療養院",
        "District": "鶯歌區",
        "Address": "新北市鶯歌區鶯桃路二段62號及64號1至4樓",
        "Tel": "(02)26701092",
        "twd97X": "282801.32",
        "twd97Y": "2762853.71",
        "longitude": "121.324887184916",
        "latitude": "24.9732477681013"
    },
    {
        "No": "34",
        "Name": "宏仁醫院",
        "District": "三重區",
        "Address": "新北市三重區三和路二段一八六、一八八、一九０、一九二、一九四、一九六號一至四樓",
        "Tel": "(02)29788877",
        "twd97X": "300286.49",
        "twd97Y": "2773518.19",
        "longitude": "121.4984569357",
        "latitude": "25.0690482669805"
    },
    {
        "No": "35",
        "Name": "新北市立聯合醫院",
        "District": "三重區",
        "Address": "新北市三重區新北大道1段3號、3之1號、板橋區英士路198號",
        "Tel": "(02)29829111",
        "twd97X": "296334.8",
        "twd97Y": "2766920.84",
        "longitude": "121.459065708",
        "latitude": "25.0096133855"
    },
    {
        "No": "36",
        "Name": "三重中興醫院",
        "District": "三重區",
        "Address": "新北市三重區中興北街二十一號",
        "Tel": "(02)29959680",
        "twd97X": "297390.01",
        "twd97Y": "2771014.11",
        "longitude": "121.469660575034",
        "latitude": "25.0465350054997"
    },
    {
        "No": "37",
        "Name": "祐民醫院",
        "District": "三重區",
        "Address": "新北市三重區重新路二段2號、6號地下1層至地上9層",
        "Tel": "(02)29783456",
        "twd97X": "300432.22",
        "twd97Y": "2772826.16",
        "longitude": "121.499876009098",
        "latitude": "25.0627957992575"
    },
    {
        "No": "38",
        "Name": "益民醫院",
        "District": "新莊區",
        "Address": "新北市新莊區中港路127號1-4樓",
        "Tel": "(02)89911050",
        "twd97X": "295934.89",
        "twd97Y": "2770294.96",
        "longitude": "121.455215977474",
        "latitude": "25.0400873378038"
    },
    {
        "No": "39",
        "Name": "新莊英仁醫院",
        "District": "新莊區",
        "Address": "新北市新莊區大觀街４６－２號",
        "Tel": "(02)29916363",
        "twd97X": "295797.48",
        "twd97Y": "2769806.12",
        "longitude": "121.453838088988",
        "latitude": "25.0356782291893"
    },
    {
        "No": "40",
        "Name": "新泰綜合醫院",
        "District": "新莊區",
        "Address": "新北市新莊區新泰路141號2-5樓、143號2-5樓、145號、147號、151號、153號、155號、157號、165號、167號、169號",
        "Tel": "(02)29962121",
        "twd97X": "295211.86",
        "twd97Y": "2769904.99",
        "longitude": "121.44803809467",
        "latitude": "25.0365884412753"
    },
    {
        "No": "41",
        "Name": "財團法人台灣省私立台北仁濟院附設新莊仁濟醫院",
        "District": "新莊區",
        "Address": "新北市新莊區中環路1段28號",
        "Tel": "(02)22015222",
        "twd97X": "294679.24",
        "twd97Y": "2768812.03",
        "longitude": "121.442724727431",
        "latitude": "25.0267369559083"
    },
    {
        "No": "42",
        "Name": "新仁醫療社團法人新仁醫院",
        "District": "新莊區",
        "Address": "新北市新莊區中正路395號1-5樓、397-3號、397-4號、福海街24巷1號1樓",
        "Tel": "(02)22017212",
        "twd97X": "294397",
        "twd97Y": "2769967",
        "longitude": "121.439965236",
        "latitude": "25.0371724322"
    },
    {
        "No": "43",
        "Name": "衛生福利部樂生療養院",
        "District": "新莊區",
        "Address": "新北市新莊區中正路794號及桃園縣龜山鄉萬壽路1段50巷2號",
        "Tel": "(02)82006600",
        "twd97X": "280392.47",
        "twd97Y": "2765040",
        "longitude": "121.301076582",
        "latitude": "24.9930363834"
    },
    {
        "No": "44",
        "Name": "大順醫院",
        "District": "新莊區",
        "Address": "新北市新莊區中正路二一五號一至四樓",
        "Tel": "(02)29912637",
        "twd97X": "295528.08",
        "twd97Y": "2769813.81",
        "longitude": "121.45116874536",
        "latitude": "25.0357558072519"
    },
    {
        "No": "45",
        "Name": "衛生福利部臺北醫院",
        "District": "新莊區",
        "Address": "新北市新莊區思源路127號",
        "Tel": "(02)22765566",
        "twd97X": "296378.37",
        "twd97Y": "2770645.79",
        "longitude": "121.459622625342",
        "latitude": "25.0432411486168"
    },
    {
        "No": "46",
        "Name": "全民醫院",
        "District": "蘆洲區",
        "Address": "新北市蘆洲區三民路7號",
        "Tel": "(02)22821575",
        "twd97X": "297989.25",
        "twd97Y": "2774951.52",
        "longitude": "121.475736536235",
        "latitude": "25.0820630201731"
    },
    {
        "No": "47",
        "Name": "衛生福利部八里療養院",
        "District": "八里區",
        "Address": "新北市八里區華富山33號",
        "Tel": "(02)26101660",
        "twd97X": "291575.13",
        "twd97Y": "2782074.19",
        "longitude": "121.41236790055",
        "latitude": "25.1465567664434"
    },
    {
        "No": "48",
        "Name": "台灣基督長老教會馬偕醫療財團法人淡水馬偕紀念醫院",
        "District": "淡水區",
        "Address": "新北市淡水區民生路四十五號、民權路47號B1~10樓",
        "Tel": "(02)28094661",
        "twd97X": "296430.44",
        "twd97Y": "2781312.11",
        "longitude": "121.460498868812",
        "latitude": "25.1395348526717"
    },
    {
        "No": "49",
        "Name": "北新醫療社團法人北新醫院",
        "District": "淡水區",
        "Address": "新北市淡水區忠寮里演戲埔腳1之2號",
        "Tel": "(02)26209199",
        "twd97X": "297951.17",
        "twd97Y": "2787253.63",
        "longitude": "121.475789259202",
        "latitude": "25.1931264973418"
    },
    {
        "No": "50",
        "Name": "長青醫院",
        "District": "淡水區",
        "Address": "新北市淡水區糞箕湖１－５號",
        "Tel": "(02)86260561",
        "twd97X": "298928.52",
        "twd97Y": "2784656.29",
        "longitude": "121.48539365305",
        "latitude": "25.1696466224458"
    },
    {
        "No": "51",
        "Name": "泓安醫院",
        "District": "淡水區",
        "Address": "新北市淡水區下圭柔山九一巷二號一至四樓．地下一樓",
        "Tel": "(02)26232681",
        "twd97X": "294104.8",
        "twd97Y": "2789185.56",
        "longitude": "121.437687397866",
        "latitude": "25.2106855077945"
    },
    {
        "No": "52",
        "Name": "公祥醫院",
        "District": "淡水區",
        "Address": "新北市淡水區英專路２１巷２５．２７號、中山路３８．４０號",
        "Tel": "(02)26217637",
        "twd97X": "294824.21",
        "twd97Y": "2784655.68",
        "longitude": "121.444678019549",
        "latitude": "25.1697690221856"
    },
    {
        "No": "53",
        "Name": "台安醫院",
        "District": "三芝區",
        "Address": "新北市三芝區興華里楓子林路四十二之五號、四十二之九號〈一至二樓〉",
        "Tel": "(02)26371600",
        "twd97X": "300127.27",
        "twd97Y": "2787749.93",
        "longitude": "121.497398851576",
        "latitude": "25.1975359620979"
    }
]